{
	"hospitals":
    [

        {
			"name": "Centre Medical Du Nord",
			"latitude": "-20.008307",
			"longitude": "57.559647",
			"address": "Rte Royal, Grand Baie"

		},

		{
			"name": "Poudre D’or Chest Hospital",
			"latitude": "-20.059345",
			"longitude": "57.685101",
			"address": "Poudre d'Or"

		},

		{
			"name": "Stella Maris Clinic",
			"latitude": "-20.054331",
			"longitude": "57.556621",
			"address": "Triolet"

		},

		{
			"name": "Triolet Medi-Clinic",
			"latitude": "-20.060544",
			"longitude": "57.555528",
			"address": "New Market Rd, Triolet"

		},

        {
			"name": "Long Mountain Hospital",
			"latitude": "-20.150372",
			"longitude": "57.572218",
			"address": "Police Station, B19, Baillache, Long Mountain"

		},

		{
			"name": "Dr AG Jeetoo Hospital (Civil)",
			"latitude": "-20.168991",
			"longitude": "57.502155",
			"address": "Volcy Pougnet Street (ex-rue Madame), Port Louis"

		},

		{
			"name": "Dispensary",
			"latitude": "-20.130264",
			"longitude": "57.598586",
			"address": "B20, D'Epinay"

		},

		{
			"name": "Wellkin Hospital",
			"latitude": "-20.233059",
			"longitude": "57.502682",
			"address": "Moka"

		},

		{
			"name": "Victoria Hospital",
			"latitude": "-20.278310",
			"longitude": "57.476513",
			"address": "Candos Vacoas Road, Quatre Bornes"

		},

		{
			"name": "Health Centre Vacoas",
			"latitude": "-20.297995",
			"longitude": "57.488767",
			"address": "Vacoas-Phoenix"

		},

		{
			"name": "Flacq Hospital",
			"latitude": "-20.191845",
			"longitude": "57.719193",
			"address": "Central Flacq"

		},

		{
			"name": "Sir Seewoosagur Ramgoolam National (SSRN) Hospital",
			"latitude": "-20.096676",
			"longitude": "57.559296",
			"address": "B18"

		},

		{
			"name": "Clinique Du Nord",
			"latitude": "-20.130666",
			"longitude": "57.496941",
			"address": "81 Royal Road, Port Louis"

		},
		{
			"name": "Jawaharlal Nehru Hospital",
			"latitude": "-20.405294",
			"longitude": "57.593681",
			"address": "M2, Rose Belle"

		},

		{
			"name": "Grand Bay Medical and Diagnostic Centre",
			"latitude": "-20.019637",
			"longitude": "57.580367",
			"address": "Sottise Rd, Grand Baie"

		},

		{
			"name": "Clinique Fortis Darné - La Croisette",
			"latitude": "-20.021979",
			"longitude": "57.579708",
			"address": "Grand Baie"

		},

		{
			"name": "Goodlands Mediclinic",
			"latitude": "-20.043838",
			"longitude": "57.651848",
			"address": "Goodlands"

		},



		{
			"name": "Bon Air Community Health Centre",
			"latitude": "-20.065497 ",
			"longitude": "57.570195",
			"address": "Morcellement St Andre"

		},

		{
			"name": "Plaine des Papayes Community Health Centre",
			"latitude": "-20.064239",
			"longitude": "57.580972",
			"address": "Royal Rd, Plaine Des Papayes"

		},

		{
			"name": "Mahatma Gandhi Ayurveda Charitable Hospital",
			"latitude": "-20.110821",
			"longitude": "57.551939",
			"address": "Calebasses"

		},

		{
			"name": "La Clinique Mauricienne",
			"latitude": "-20.232215",
			"longitude": "57.495701",
			"address": "Moka"

		},

		{
			"name": "Medpoint Hospital",
			"latitude": "-20.280592",
			"longitude": "57.484505",
			"address": "Sir Seewoosagar Ramgoolam Avenue, Vacoas-Phoenix"

		},

		{
			"name": "DHI Mauritius",
			"latitude": "-20.308837",
			"longitude": "57.511955",
			"address": "King George V Ave, Vacoas-Phoenix"

		},

		{
			"name": "Active Health Care Mauritius",
			"latitude": "-20.324461",
			"longitude": "57.530321",
			"address": "Curepipe"

		},

		{
			"name": "Mahebourg Hospital",
			"latitude": "-20.410800",
			"longitude": "57.703352",
			"address": "Mahebourg"

		},

		{
			"name": "Medi Clinic",
			"latitude": "-20.474270",
			"longitude": "57.618036",
			"address": "L'Escalier"

		},

		{
			"name": "New Souillac Hospital",
			"latitude": "-20.521354",
			"longitude": "57.523882",
			"address": "Savanne Road, Souillac"

		},

		{
			"name": "Tyack Health Centre",
			"latitude": "-20.481098",
			"longitude": "57.557750",
			"address": "Riviere des Anguilles"

		},


		{
			"name": "Anavara Medical Tourism (Mauritius Limited)",
			"latitude": "-20.246843",
			"longitude": "57.597594",
			"address": "One Way Road Quartier Militaire, Moka"

		},

		{
			"name": "L’esperance CHC",
			"latitude": "-20.223813",
			"longitude": "57.595758",
			"address": "Esperance,Quartier Militaire"

		}
	]
}
